[
  {
    "name": "保密局南所",
    "address": "臺北市中正區延平南路133巷",
    "classify": "刑求",
    "description": "保密局南所的正式名稱不詳，簡稱南所，起迄時間不明，隸屬於國防部保密局，位於今臺北市延平南路133巷（當時警備總司令部的圍牆內，臨近警總後門），現今範圍約在東吳大學城中校區與國防部後備指揮部之間。約在一九五○年代前期開始作為關押政治犯的監獄使用。",
    "lat": 25.037802,
    "lng": 121.508918
  },
  {
    "name": "華山貨運站",
    "address": "華山車站臺北市中正區梅花里",
    "classify": "其他",
    "description": "華山貨運站，另名華山車站，位於今華山藝文特區後方的華山大草原（範圍約在現市民大道與林森北路口）。",
    "lat": 25.045271,
    "lng": 121.526295
  },
  {
    "name": "調查局（誠舍）",
    "address": "臺灣新北市土城區立德路2號",
    "classify": "監禁羈押",
    "description": "誠舍，為臺北看守所裡的「獄中獄」，隸屬調查局，為調查局的秘監。誠舍位於於臺北地方法院看守所內，位址與該所相同：原設於臺北市愛國東路1號，後於1975年遷建至現址今新北市土城區立德路2號。惟誠舍於所中設立的起訖年代不詳，推估最遲應在一九六○年代後期已成立。誠舍雖然空間上「寄生」在臺北看守所內，但其中人員皆為調查局人員，關押的多為疑似違法犯紀的調查員，是調查局關門審訊跟羈押「自己人」的違法秘密監獄。",
    "lat": 24.986814,
    "lng": 121.461739
  },
  {
    "name": "刑警總隊",
    "address": "臺灣臺北市大同區寧夏路87號",
    "classify": "刑求",
    "description": "臺灣省警務處刑警總隊拘留所，於1933年（昭和八年）遷至日治時期的蓬萊町街區（今臺北市大同區寧夏路與錦西街街口），隸屬臺北北警察署。當時的臺北警察署分為臺北南警察署（簡稱南署，位於臺北舊城內）與臺北北警察署（簡稱北署，位於大稻埕），刑警總隊隸屬於當時的北署，與拘留所同址。",
    "lat": 25.059009,
    "lng": 121.515149
  },
  {
    "name": "憲兵司令部軍法看守所",
    "address": "臺灣臺北市大同區涼州街28號",
    "classify": "監禁羈押",
    "description": "憲兵司令部軍法處看守所，昔址位於今臺北市涼州街28號（範圍約在現甘州街、重慶北路二段、甘州街42巷之間），戒嚴時期是關押政治犯的重要場所。",
    "lat": 25.060739,
    "lng": 121.512709
  },
  {
    "name": "空總軍法處看守所",
    "address": "臺灣臺北市大安區建國南路一段",
    "classify": "審判",
    "description": "空軍總司令部軍法處看守所，起迄時間不明（推估於1949年設立，1999年裁撤），舊址為臺北市建國南路251巷2號，現址尚待考證（約今臺北市仁愛路三段118巷12弄至20弄之間，現為富邦產物保險和延平中學後面的民宅區），是一九五○至一九七○年代的戒嚴時期用以關押於空軍服役的犯罪者的看守所。",
    "lat": 25.039677,
    "lng": 121.537475
  },
  {
    "name": "臺灣臺北監獄",
    "address": "臺北監獄臺北市中正區台北市大安區金山南路二段52號",
    "classify": "監禁羈押",
    "description": "臺北監獄（簡稱北監），初名臺北縣臺北監獄署，於日治之初的1895年（明治二十八年）借清朝參府衙門舊址（日治行政區福住町）略加修葺而成，因應日治改制經歷臺北縣監獄署（1897年）、臺北監獄（1900年）等多次更名。日人後於臺北東門城外，規劃一效法賓州式監獄格局的輻射型監獄設施，於1903年（明治三十六年）將臺北監獄遷建至今臺北市金山南路二段52號（位於愛國東路底）。1923年（大正十二年）「治警事件」的後續審判中，此處曾關押過諸多相關人士（如：蔣渭水、林幼春、王敏川等）。1924年（大正十三年）伴隨日本敕令277號的用語轉換，臺北監獄更名為「臺北刑務所」。",
    "lat": 25.033091,
    "lng": 121.524378
  },
  {
    "name": "臺灣臺北看守所（土城看守所）",
    "address": "臺北看守所新北市土城區立德路2號",
    "classify": "監禁羈押",
    "description": "臺灣臺北看守所，1952年7月1日與「臺灣臺北監獄」（簡稱北監）分立後，更名全銜為「臺灣臺北地方法院看守所」。昔址為臺北市愛國東路1號，後因愛國東路位址逐漸發展為都會中心，屋舍建築亦年久陳舊，故於1975年遷往現址新北市土城區立德路2號，故亦名「土城看守所」。1980年7月1日因審檢分隸，改稱「臺灣臺北看守所」，並由司法院改隸屬法務部。2011年改制法務部矯正署後，更名為「法務部矯正署臺北看守所」。",
    "lat": 24.988071,
    "lng": 121.461014
  },
  {
    "name": "國防部臺北軍人監獄",
    "address": "臺北軍人監獄臺北市中正區忠孝東路一段以南、林森南路以西、青島東路以北、鎮江街以東",
    "classify": "監禁羈押",
    "description": "國防部臺北軍人監獄，設立於1947年，舊址位於今臺北市中正區忠孝東路一段以南、林森南路以西、青島東路以北、鎮江街以東的街廓內，確切位置尚待考證。國防部臺北軍人監獄為臺灣戰後第一座軍人監獄，與臺灣省保安司令部軍法處看守所（今青島東路3號）、國防部軍法局看守所（今青島東路1號）相鄰，共用改建自日治時期的一棟陸軍倉庫。",
    "lat": 25.044471,
    "lng": 121.522366
  },
  {
    "name": "三張犁招待所",
    "address": "三張犁留質室臺北市信義區吳興街361巷1弄",
    "classify": "偵訊",
    "description": "調查局三張犁招待所，全名為「司法行政部調查局三張犁招待所」，又名三張犁留質室，1958年7月設立時的舊址為臺北市基隆路二段13巷（今臺北市吳興街361巷1弄），並名為「第一留質室」，1967年4月改為「三張犁招待所」。",
    "lat": 25.026522,
    "lng": 121.564188
  },
  {
    "name": "內政部調查局",
    "address": "調查局本部臺北市萬華區環河南路一段77號",
    "classify": "偵訊",
    "description": "內政部調查局，又名調查局本部，隸屬內政部，1949年設立於今臺北市萬華區環河南路一段77號，至1958年遷離至基隆路。",
    "lat": 25.044599,
    "lng": 121.50138
  },
  {
    "name": "臺灣省保安司令部軍法處看守所新店分所",
    "address": "新店區公有碧潭零售市場新北市新店區新店路159號",
    "classify": "審判",
    "description": "保安司令部軍法處看守所新店分所，又名新店看守所，起迄時間不明（最遲成立於1950年），短期存在於一九五○年代前期，係由日治時期的新店戲臺改建而成。",
    "lat": 24.955252,
    "lng": 121.536972
  },
  {
    "name": "臺灣省生產教育實驗所",
    "address": "台灣新北市土城區新北市土城區仁愛路23號",
    "classify": "監禁羈押",
    "description": "臺灣省生產教育實驗所，又名生教所，1954年設立於土城土城清水坑（舊址：土城鄉清水村3號，今新北市土城區仁愛路23號），占地約十公頃。1974年8月改名為「仁愛教育實驗所」（簡稱仁教所），又名仁愛莊。名義上隸屬臺灣省政府，實由保安司令部／警總總部管轄。1987年解嚴後裁撤，原址改由臺北縣團管區司令部進駐，今改制為新北市後備指揮部。",
    "lat": 24.979608,
    "lng": 121.461671
  },
  {
    "name": "內湖新生總隊",
    "address": "台灣臺北市內湖區臺北市內湖路二段41號",
    "classify": "監禁羈押",
    "description": "內湖新生總隊，另名內湖集中營，約1950年春成立至1952年，設立於今臺北市內湖路二段41號（現址為內湖國民小學），隸屬保安司令部。",
    "lat": 25.079203,
    "lng": 121.58025
  },
  {
    "name": "極樂殯儀館",
    "address": "臺灣臺北市中山區新生北路二段28巷",
    "classify": "其他",
    "description": "極樂殯儀館，於1949年由日治時期臺北市役所經營的公營葬儀堂改立而成，原址位於林森公園新生北路二段與南京東立一段交接口處（今臺北市新生北路二段28巷）。一九五○年代許多被槍決的政治犯多委由極樂殯儀館處理大體，再讓家屬領回或安葬在六張犁墓區，白色恐怖時期為主要處理政治犯大體的葬儀單位。於一九七○年代前後停業並撤離，舊建築已拆除，今改立為長安抽水站，隸屬臺北市政府工務局水利工程處管理。",
    "lat": 25.052644,
    "lng": 121.527179
  },
  {
    "name": "海軍反共先鋒訓練營",
    "address": "名間國小南投縣名間鄉彰南路220號",
    "classify": "監禁羈押",
    "description": "海軍反共先鋒訓練營，另名反共先鋒營，是白色恐怖時期的海軍進行內部整肅的場所。訓練營的開辦起迄時間不明（約為1950年6月1日至1951年11月16日。另一說，1949年即開辦，而據馮馮所著的《霧航》一書，反共先鋒營一直到1954年8月桂永清死亡後，9月逢颱風地震才解散），一共收訓三期。",
    "lat": 23.845168,
    "lng": 120.698128
  },
  {
    "name": "國防部泰源感訓監獄",
    "address": "東河鄉臺東縣東河鄉北源村32號",
    "classify": "監禁羈押",
    "description": "國防部泰源感訓監獄，另名泰源監獄，設立於1962年至1972年，位於今臺東縣東河鄉北源村32號（幅員約8.7公頃），隸屬國防部，為專關「叛亂犯」的特種監獄。1970年因「泰源事件」陸續將政治犯移監至綠島綠洲山莊，1973年原址改隸臺灣警備司令部，另立「臺灣警備總司令部職業訓導第三總隊及泰源職業訓練中心」。解嚴後，軍法、司法分治，故於1988年改由法務部接管並重新整建，定名為「法務部臺灣泰源感訓監獄」，1992年改制為「法務部臺灣泰源技能訓練所」，2011年更名為法務部矯正署泰源技能訓練所。",
    "lat": 23.01522,
    "lng": 121.277004
  },
  {
    "name": "海軍總部軍法處看守所",
    "address": "鎮海營區高雄市左營區鎮海營區",
    "classify": "審判",
    "description": "海軍總部軍法處看守所，1949年6月至1954年設立於高雄市左營區，今海軍「鎮海營區」。為一九五○年代海軍白色恐怖事件時，作為臨時性海軍內部羈押判決的單位。1954年，海軍總部遷往臺北，園營區由海軍第一軍區司令部進駐，原看守所亦為海一軍區使用，成為海一軍司令部軍法室看守所。",
    "lat": 22.684153,
    "lng": 120.279788
  },
  {
    "name": "海軍總司令部情報處拘留所（左營大街三樓）",
    "address": "三樓冰茶室高雄市左營區高雄市左營區左營大路256-260號",
    "classify": "偵訊",
    "description": "海軍總司令部情報處拘留所，又名左營大街三樓（簡稱「三樓」），起迄時間不明（約於1949年設立至1954年海軍總部北遷），位於今高雄市左營區左營大路254至262號（「三樓冰茶室」五連棟建築），推估為「臺灣工作隊」或「海軍情報隊」的海軍特務機關所徵用，主要在一九五○年代海軍白色恐怖事件期間，短期囚禁並初步偵訊忠誠嫌疑者。",
    "lat": 22.685651,
    "lng": 120.290287
  },
  {
    "name": "臺灣警備總司令部保安處（博愛路172號）",
    "address": "臺灣臺北市中正區博愛路172號",
    "classify": "刑求",
    "description": "臺灣警備總司令部保安處，全名臺灣警備總司令部保安處看守所，另名警總保安處，簡稱「警備總部」、「警總」，隸屬國防部。於1958年整編改制而成（前身之一為臺灣省保安司令部保安處），至1992年7月31隨警備總部裁撤。警備總部約於1970年自西寧南路東本願寺舊址遷移至今臺北市博愛路172號（現為國防部後備指揮部）。博愛路現址主要為一九七○年代戒嚴時期偵訊與關押政治犯的監獄。",
    "lat": 25.037198,
    "lng": 121.51083
  },
  {
    "name": "鹿窟菜廟",
    "address": "鹿窟事件紀念公園新北市石碇區碇南路二段鹿窟巷17號",
    "classify": "紀念地",
    "description": "鹿窟菜廟，別稱潮音佈教所，於日治時期1913年（大正二年）創建於汐止的鹿窟村，位於今新北市石碇區碇南路二段鹿窟巷17號（汐止、石碇、南港交界處），為木造寺廟，主祀釋迦牟尼佛。1952年12月29日爆發「鹿窟事件」，臺北衛戌司令部、臺灣省保安司令部、保密局與臺北縣警察局在保密局偵防組組長谷正文的指揮下，包圍鹿窟山區並逐戶搜索，並將鹿窟菜廟作為臨時聯合指揮所兼偵訊監獄，將逮捕的人犯送至此監禁並以刑求逼供，為判決人數最多的冤案。",
    "lat": 25.032823,
    "lng": 121.667152
  },
  {
    "name": "法務部調查局安康接待室",
    "address": "法務部調查局安康接待室新北市新店區雙城路12號",
    "classify": "偵訊",
    "description": "法務部調查局安康接待室，另名安康接待室，於1974年1月8日設立，位於今新北市新店區雙城路12號，安康接待室設有押房，除調查局外，警備總部軍法處（警總景美軍法看守所）安康分所也在同址辦公，故隸屬司法行政部調查局、警備總部。主要為一九七○、八○年代留置偵訊叛亂犯的單位，諸如重大叛亂犯、美麗島事件政治犯、一清專案等相關案件的偵訊都在此進行",
    "lat": 24.950666,
    "lng": 121.491337
  },
  {
    "name": "臺灣警備總司令部軍法處看守所（景美看守所）",
    "address": "景美看守所新北市新店區復興路131號",
    "classify": "審判",
    "description": "臺灣警備總司令部軍法處看守所，於1949年至1992年設立，原隸屬於臺灣保安司令部，1958年整編改組為臺灣警備總司令部。初期設於今臺北市青島東路3號（現為喜來登大飯店的周遭街廓），於1968年遷入今新北市新店區復興里復興路131號（舊址為臺北縣新店鎮二十張路，新店秀朗橋旁，現為「白色恐怖景美紀念園區」暨「國家人權博物館」）。為區別於青島東路舊址，新址位於新店與臺北市景美交界處，故另稱「景美看守所」，為警備總部轄下軍法處用地。此區為戒嚴時期軍事、政治、治安案件審訊、羈押的場所，許多政治受難者在此遭到判刑（死刑或刑期），於此區代監執行或短暫羈押後轉送至綠島或臺東泰源監獄。",
    "lat": 24.987926,
    "lng": 121.533296
  },
  {
    "name": "大龍峒留質室",
    "address": "臺北市酒泉街保安宮附近臺北市大同區臺北市酒泉街",
    "classify": "偵訊",
    "description": "大龍峒留質室，約於1950年頃至1958年設立，位於今臺北市酒泉街保安宮附近（確切地址尚待考證）。1950年頃內政部調查局（1956年6月1日改隸司法行政部，更名為司法行政部調查局）在臺北恢復工作，亟須有一囚禁人犯的留質室，初期便徵用保安宮附近的大龍峒民宅，將之改建為偵查監獄。",
    "lat": 25.072014,
    "lng": 121.514313
  },
  {
    "name": "臺灣警備總司令部軍法處看守所（青島東路3號）",
    "address": "臺北市中正區青島東路3號",
    "classify": "審判",
    "description": "軍法處看守所，於1949年至1992年設立，原隸屬於臺灣保安司令部，1958年整編改組為臺灣警備總司令部。初期（1949年至1967年）設於今臺北市青島東路3號，和國防部軍法局看守所同址，範圍約在今忠孝東路一段以南、林森南路以西、青島東路以北、鎮江街以東之街廓內（現為喜來登大飯店周遭街廓），後期於1968年與國防部軍法局等單位一同遷至新店秀朗橋旁軍法學校之舊址（另稱警總景美看守所，現為白色恐怖景美紀念園區），解嚴後於1992年7月隨警備總司令部裁撤。",
    "lat": 25.044261,
    "lng": 121.52113
  },
  {
    "name": "臺灣警備總司令部軍法處看守所安坑分所（安坑看守所）",
    "address": "法務部矯正署新店戒治所新北市新店區新北市新店區莒光路42號",
    "classify": "審判",
    "description": "臺灣警備總司令部軍法處看守所安坑分所，另稱安坑看守所，原隸屬於臺灣保安司令部，1958年整編改組為臺灣警備總司令部，分所設立的起迄時間不明（推估於1952年新店軍人監獄設立之後，約一九五○年代中期成立），因軍法處看守所於青島東路本所的押房不敷使用，由新店的國防部臺灣軍人監獄（簡稱新店軍監）撥用五棟監舍中的「信監」作為安坑分所，位於今新北市新店區莒光路42號，在一九五○至七○年代主要代監執行囚禁政治犯。",
    "lat": 24.957391,
    "lng": 121.523578
  },
  {
    "name": "國防部軍法局看守所",
    "address": "臺北喜來登大飯店臺北市中正區臺北市青島東路1號",
    "classify": "審判",
    "description": "國防部軍法局看守所，於1950年9月1日成立，約於2000年裁撤改制為軍法司。初期（1950至1968年）位於臺北市青島東路1號。",
    "lat": 25.044313,
    "lng": 121.520682
  },
  {
    "name": "保密局北所（高砂鐵工廠）",
    "address": "臺灣臺北市大同區伊寧街46號",
    "classify": "刑求",
    "description": "保密局北所，正式名稱不詳，隸屬於國防部保密局，起迄時間不明（約於一九五○年代前期設立），位在今臺北市伊寧街46號（範圍約於延平北路三段以東、伊寧街以南、稻家商職以西、延平北路三段17巷以北）。",
    "lat": 25.064588,
    "lng": 121.511251
  },
  {
    "name": "國防部新店監獄（新店軍人監獄）",
    "address": "法務部矯正署新店戒治所新北市新店區新北市新店區莒光路42號",
    "classify": "監禁羈押",
    "description": "國防部臺灣軍人監獄，另稱新店軍人監獄，簡稱新店軍監，前身為臺北市青島東路的「臺北軍人監獄」，由於當時和「保安司令部軍法處看守所」、「國防部軍法局看守所」三監緊鄰，共用日治時代陸軍倉庫改建而成，一九五○年代白色恐怖大逮捕後，臺北軍監空間不敷使用，於1952年改遷今新北市新店區莒光路42號（舊址為新店鎮敬義路1977號），改名為「國防部臺灣軍人監獄」，與槍決人犯的「安坑刑場」僅一丘之隔。",
    "lat": 24.957391,
    "lng": 121.523578
  },
  {
    "name": "海軍總司令部情報處看守所（鳳山海軍來賓招待所）",
    "address": "鳳山高雄市鳳山區勝利路10號",
    "classify": "刑求",
    "description": "海軍總司令部情報處看守所，另稱鳳山海軍來賓招待所，簡稱鳳山招待，1949年7月設立，位於今高雄市鳳山區勝利路10號。一九五○年代初期專門審訊海軍白色恐怖案的思想犯並刑求取供的地方，囚禁人數高達1,500人，可謂戰後最大的偵訊監獄。",
    "lat": 22.627144,
    "lng": 120.373813
  },
  {
    "name": "保安司令部保安處看守所（東本願寺）",
    "address": "臺灣臺北市萬華區西寧南路36號",
    "classify": "監禁羈押",
    "description": "保安司令部保安處看守所，設立時間約在戰後（二二八事件時即有關押紀錄），位於舊東本院寺，今臺北市西寧南路36號（範圍約在臺北市西門町的昆明街、漢口街、武昌街、西寧南路之間），占地約2,615坪。位於東本願寺的看守所早期隸屬於保安司令部，1958年合併整編為警備總部司令部，為一九五○至六○年代白色恐怖時期關押與審訊政治犯的重要場所。約於1970年，警備總部遷址至城中區博愛路新址。解嚴後，警備總部於1992年7月31日起裁撤後，歷經多次改制，於2002年3月1日正式修編為「國防部後備司令部」。",
    "lat": 25.04514,
    "lng": 121.506454
  },
  {
    "name": "安坑刑場",
    "address": "新店區第三公墓新北市新店區安華路21巷",
    "classify": "槍決",
    "description": "安坑刑場，隸屬國防部，起迄時間不明，位於今新北市新店區安華路（舊稱刑場路），主要為一九五○年代白色恐怖時代槍決政治犯，為取代馬場町刑場所設立。",
    "lat": 24.958915,
    "lng": 121.520048
  },
  {
    "name": "天牢",
    "address": "蘆竹桃園市蘆竹區溪洲31-1號",
    "classify": "監禁羈押",
    "description": "天牢，全名為國防部保密局桃園感訓所，另名桃園監獄、徐家祠堂，起迄時間尚待考證（約1950年至1958年），位於今桃園市蘆竹區溪洲31-1號（南崁路二段268號巷內）；地號為蘆竹鄉南崁內厝字溪洲103號；為一九五○年代白色恐怖時期特務機關的保密局臨時監獄。",
    "lat": 24.778289,
    "lng": 120.988108
  },
  {
    "name": "馬場町刑場",
    "address": "萬華臺北市萬華區水源路",
    "classify": "槍決",
    "description": "馬場町刑場，隸屬國防部，起迄時間尚待考證（約1949年至1954年），位於新店溪畔堤防外的河灘地（現為馬場町紀念公園、青年公園河灘地一帶），為一九五○年代白色恐怖大逮捕時期槍決政治犯的主要刑場。",
    "lat": 25.019671,
    "lng": 121.504693
  },
  {
    "name": "綠島感訓監獄（綠洲山莊）",
    "address": "綠島臺東縣綠島鄉將軍岩20號",
    "classify": "監禁羈押",
    "description": "國防部綠島感訓監獄，設立於1972年至1987年，隸屬國防部，位於今臺東縣綠島鄉公館村將軍岩20號（同保安司令部新生訓導處舊址：公館村6鄰流麻溝15號，現為白色恐怖綠島紀念園區），占地約兩公頃。綠島感訓監獄係因臺東泰源監獄爆發「泰源事件」，而於綠島當時已停止使用的「新生訓導處」西側規劃興建一新式監獄，為一九七○至八○年代戒嚴時期專供執行重刑及案情特殊之叛亂犯的監獄。",
    "lat": 22.674859,
    "lng": 121.498664
  },
  {
    "name": "臺灣省保安司令部新生訓導處",
    "address": "綠島臺東縣綠島鄉公館村將軍岩20號",
    "classify": "監禁羈押",
    "description": "臺灣省保安司令部新生訓導處，簡稱新生訓導處，另名莊敬營區，設立於1951年至1965年，位於今綠島鄉公館村將軍岩20號（舊址：公館村6鄰流麻溝15號，現為白色恐怖綠島紀念園區）。原隸屬臺灣省保安司令部，1958年改隸警備總部。主要為一九五○至六○年代白色恐怖時期監管、改造思想政治犯最大型的集中營，兼具勞動改造和思想改造雙重功能。",
    "lat": 22.675176,
    "lng": 121.496261
  },
  {
    "name": "六張犁墓區",
    "address": "六張犁墓區臺北市大安區崇德街",
    "classify": "埋葬",
    "description": "六張犁墓區，位於今臺北市信義區六張犁崇德街山區（現為臺北市示範公墓暨戒嚴時期政治受難者墓區），現由臺北市殯葬處管理。墓地約有兩百餘座墓塚和墓石碑，多為一九五○年代白色恐怖時期無人認領的死難者遺體，此亂葬岡墓區因受難者曾梅蘭尋找兄長徐慶蘭的屍骨遲至1993年方見天日。",
    "lat": 25.021807,
    "lng": 121.560109
  }
]